{ "name": "Montreal", "city": "Montreal", "code": "mon", "street": "127 St-Pierre St.", "state": "QC", "zip": "H2Y 2L6", "phone": "+1 438 796 0300", "fax": "+1 514 448 5101", "coordinates":[   -73.554483 ,    45.500707  ]},
{ "name": "Ottawa", "city": "Ottawa", "code": "ott", "street": "45 Oâ€™Connor St., Suite 1150", "state": "Ontario", "zip": "H2Y 2L6", "phone": "+1 613 668 4454", "fax": "+1 613 237 9145", "coordinates":[    45.421270,    75.698088  ]},
{ "name": "Toronto", "city": "Toronto", "code": "yyz", "street": "90 Eglinton Avenue East, Suite 502", "state": "Ontario", "zip": "M4P 2Y3", "phone": "+1 647 259 2555", "fax": "+1 416 482 6299", "coordinates":[    -79.395865,    43.707609  ]},
{ "name": "Raleigh", "city": "Raleigh", "code": "rdu", "street": "100 East Davie Street", "state": "North Carolina", "zip": "27601", "phone": "+1 919 754 4950", "fax": "+1 919 800 3804", "coordinates":[    -78.637580,    35.774892  ]},
{ "name": "Atlanta", "city": "Atlanta", "code": "atl", "street": "3340 Peachtree Rd., Ste. 1200", "state": "Georgia", "zip": "30326", "phone": "+1 404 442 2000", "fax": "+1 404 948 1496", "coordinates":[    -84.367952,    33.847164  ]},
{ "name": "Capital Hill", "city": "Washington", "code": "ch", "street": "601 Pennsylvania Ave. NW, South Building, Ste. 900", "state": "District of Columbia", "zip": "20004", "phone": "+1 202 639 8100", "fax": "+1 202 639 8238", "coordinates":[    -77.020669,    38.893909  ]},
{ "name": "Charleston", "city": "North Charleston", "code": "chs", "street": "4000 Faber Place Drive", "state": "South Carolina", "zip": "29405", "phone": "+1 843 323 4102", "fax": "+1 843 323 4101", "coordinates":[    -80.019823,    32.845369  ]},
{ "name": "Charlotte", "city": "Charlotte", "code": "clt", "street": "401 North Tryon St. Ste. 1071", "state": "North Carolina", "zip": "28202", "phone": "+1 704 665 5302", "fax": "+1 704 998 5301", "coordinates":[    -80.839413,    35.230232  ]},
{ "name": "Chicago", "city": "Chicago", "code": "ord", "street": "101 N. Wacker Dr., Ste. 150", "state": "Illinois", "zip": "60606", "phone": "+1 312 660 3500", "fax": "+1 312 660 3558", "coordinates":[    -87.636392,    41.883589  ]},
{ "name": "Dallas", "city": "Dallas", "code": "hun", "street": "1501 LBJ Freeway, Suite 200", "state": "Texas", "zip": "75234", "phone": "+1 972 892 4500", "fax": "+1 972 241 0542", "coordinates":[    -96.927299,    32.909829  ]},
{ "name": "Denver", "city": "Denver", "code": "den", "street": "4600 South Syracuse, Ste. 900", "state": "Colorado", "zip": "80237", "phone": "+1 303 256 6210", "fax": "+1 303 256 6591", "coordinates":[    -104.898814,    39.629234  ]},
{ "name": "Huntsville", "city": "Huntsville", "code": "hun", "street": "4900 Corporate Dr., Ste. L", "state": "Alabama", "zip": "35805", "phone": "+1 256 837 1956", "fax": "+1 256 837 0057", "coordinates":[    -86.656230,    34.733768  ]},
{ "name": "Los Angeles", "city": "Los Angeles", "code": "lax", "street": "707 Wilshire Blvd, Suite 5025", "state": "California", "zip": "90017", "phone": "+1 256 837 1956", "fax": "+1 256 837 0057", "coordinates":[    -118.256995,    34.049235  ]},
{ "name": "Mahwah", "city": "Mahwah", "code": "mah", "street": "1 International Blvd., Ste. 903", "state": "New Jersey", "zip": "07495", "phone": "+1 201 962 3388", "fax": "+1 201 962 3236", "coordinates":[    -74.161558,    41.104617  ]},
{ "name": "Minneapolis", "city": "Minneapolis", "code": "msp", "street": "One Main Street SE, Ste. 209", "state": "Minnesota", "zip": "55414", "phone": "+1 612 638 0500", "fax": "+1 612 638 0525", "coordinates":[    -93.258721,    44.986887  ]},
{ "name": "Mountain View", "city": "Mountain View", "code": "mv", "street": "444 Castro Street, Suite 500", "state": "California", "zip": "94041", "phone": "+1 650 567 9039", "fax": "+1 650 567 9041", "coordinates":[    -122.081629,    37.390564  ]},
{ "name": "Mt. Laurel", "city": "Mt. Laurel", "code": "mtl", "street": "309 Fellowship Rd. Suite 200", "state": "New Jersey", "zip": "08054", "phone": "+1 856 642 4000", "fax": "+1 856 642 4001", "coordinates":[    -74.952590,    39.944644  ]},
{ "name": "New York", "city": "New York", "code": "nyc", "street": "140 Broadway 24th Floor", "state": "New York", "zip": "10005", "phone": "+1 212 344 2501", "fax": "+1 212 344 2508", "coordinates":[    -74.010012,    40.708600  ]},
{ "name": "Richmond", "city": "Richmond", "code": "ric", "street": "1001 Haxall Point Ste. 701", "state": "Virgina", "zip": "23219", "phone": "+1 804 355 9360", "fax": "+1 804 355 9361", "coordinates":[    -77.438855,    37.533623  ]},
{ "name": "St. Louis", "city": "St. Louis", "code": "stl", "street": "Two City Place Drive, Suite 200", "state": "Missouri", "zip": "63141", "phone": "+1 314 812 2500", "fax": "+1 314 812 2505", "coordinates":[    -90.441533,    38.673086  ]},
{ "name": "Tullahoma", "city": "Tullahoma", "code": "tul", "street": "120 West Lincoln St.", "state": "Tennessee", "zip": "37388", "phone": "+1 931 454 1706", "fax": "+1 931 454 1714", "coordinates":[    -86.210788,    35.361968  ]},
{ "name": "Tyson's Corner", "city": "Tyson's Corner", "code": "dc", "street": "8260 Greensboro Drive 3rd Floor", "state": "Virginia", "zip": "37388", "phone": "+1 703 748 2201", "fax": "+1 703 356 2813", "coordinates":[    -77.229651,    38.923584  ]},
{ "name": "Westford Park West", "city": "Westford", "code": "bos", "street": "314 Littleton Road", "state": "Massachusetts", "zip": "01886", "phone": "+1 978 392 1000", "fax": "+1 703 392 1008", "coordinates":[    -71.443914,    42.554139  ]}